{
"type": "FeatureCollection",
"name": "POIs",
"crs": { "type": "name", "properties": { "name": "urn:ogc:def:crs:OGC:1.3:CRS84" } },
"features": [
{ "type": "Feature", "properties": { "name": "Calendozio Minen", "description": "Mini Rampage! <a href=\"google.com\/maps\/search\/Calendozio Minen\">Google Maps Suche<\/a>" }, "geometry": { "type": "Point", "coordinates": [ 10.433195000778694, 42.846563435712767 ] } },
{ "type": "Feature", "properties": { "name": "Bar & Crepes 'I Sassirossi' - Cavo", "description": "Super Crepes;).. <a href=\"google.com\/maps\/search\/Bar & Crepes 'I Sassirossi' - Cavo\">Google Maps Suche<\/a>" }, "geometry": { "type": "Point", "coordinates": [ 10.421687105111864, 42.859251223462977 ] } },
{ "type": "Feature", "properties": { "name": "Bar & Ristorante 'La Piazza' - Rio Nell'Elba", "description": "Feines Essen und nette Leute, auch zu mittag.. <a href=\"google.com\/maps\/search\/Bar & Ristorante 'La Piazza' - Rio Nell'Elba\">Google Maps Suche<\/a>" }, "geometry": { "type": "Point", "coordinates": [ 10.401553011790016, 42.813766757348091 ] } },
{ "type": "Feature", "properties": { "name": "Aloe B & B Ranch Elba", "description": "Coole Unterkunft.. <a href=\"google.com\/maps\/search\/Aloe B & B Ranch Elba\">Google Maps Suche<\/a>" }, "geometry": { "type": "Point", "coordinates": [ 10.408682377036765, 42.811250255377345 ] } },
{ "type": "Feature", "properties": { "name": "PP 'Le Panche'", "description": "Shuttle-Parkplatz.. <a href=\"google.com\/maps\/search\/PP 'Le Panche'\">Google Maps Suche<\/a>" }, "geometry": { "type": "Point", "coordinates": [ 10.393229679804257, 42.808642183011926 ] } },
{ "type": "Feature", "properties": { "name": "Ristorante Mare - Magazzini", "description": "Nette Einkehr mit Aperol nach Buca del Bandito.. <a href=\"google.com\/maps\/search\/Ristorante Mare - Magazzini\">Google Maps Suche<\/a>" }, "geometry": { "type": "Point", "coordinates": [ 10.358303702245937, 42.799840744001706 ] } },
{ "type": "Feature", "properties": { "name": "Bar Ristorante Le Palme - Bagnaia", "description": "Nette Einkehr mit Aperol nach Scalette.. <a href=\"google.com\/maps\/search\/Bar Ristorante Le Palme - Bagnaia\">Google Maps Suche<\/a>" }, "geometry": { "type": "Point", "coordinates": [ 10.36372817884163, 42.810643588703883 ] } },
{ "type": "Feature", "properties": { "name": "Bar & Stabilimento Mandel", "description": "Feinste Strandbar und super nette Leute, immer wieder mal abends eine Fete!.. <a href=\"google.com\/maps\/search\/Bar & Stabilimento Mandel\">Google Maps Suche<\/a>" }, "geometry": { "type": "Point", "coordinates": [ 10.372453924676392, 42.732403377493846 ] } },
{ "type": "Feature", "properties": { "name": "Minimarkt & Bankomat - Lacona", "description": "Snack und Getränke Stop.. <a href=\"google.com\/maps\/search\/Minimarkt & Bankomat - Lacona\">Google Maps Suche<\/a>" }, "geometry": { "type": "Point", "coordinates": [ 10.313554269928702, 42.765188059048825 ] } },
{ "type": "Feature", "properties": { "name": "Tratoria 'Orti di Mare' - Lacona", "description": "Super nette Laube und feinste Sachen zu essen und zu trinken aus der eigenen Agrikultur.. <a href=\"google.com\/maps\/search\/Tratoria 'Orti di Mare' - Lacona\">Google Maps Suche<\/a>" }, "geometry": { "type": "Point", "coordinates": [ 10.309327836357474, 42.764830547047488 ] } },
{ "type": "Feature", "properties": { "name": "Ristorante Cacio & Vino - San Piero", "description": "Beste Essen weit und breit - Reservierung am abend meistens notwedig!.. <a href=\"google.com\/maps\/search\/Ristorante Cacio & Vino - San Piero\">Google Maps Suche<\/a>" }, "geometry": { "type": "Point", "coordinates": [ 10.211601766564495, 42.751601080030852 ] } },
{ "type": "Feature", "properties": { "name": "Bar Spiaggia Cavoli", "description": "Feiner Aperol Stop nach Bolle Caldaie Trail!.. <a href=\"google.com\/maps\/search\/Bar Spiaggia Cavoli\">Google Maps Suche<\/a>" }, "geometry": { "type": "Point", "coordinates": [ 10.186399316735942, 42.73738496151384 ] } },
{ "type": "Feature", "properties": { "name": "Minimarkt - Seccheto", "description": "Snacks und Getränke Stop!.. <a href=\"google.com\/maps\/search\/Minimarkt - Seccheto\">Google Maps Suche<\/a>" }, "geometry": { "type": "Point", "coordinates": [ 10.176845708130028, 42.73769072758364 ] } },
{ "type": "Feature", "properties": { "name": "Panificio - Seccheto", "description": "Super toskanische Backwaren.. <a href=\"google.com\/maps\/search\/Panificio - Seccheto\">Google Maps Suche<\/a>" }, "geometry": { "type": "Point", "coordinates": [ 10.177415675024058, 42.737597700262853 ] } },
{ "type": "Feature", "properties": { "name": "Baba Pizza - Pomonte", "description": "Nette Einkehr!.. <a href=\"google.com\/maps\/search\/Baba Pizza - Pomonte\">Google Maps Suche<\/a>" }, "geometry": { "type": "Point", "coordinates": [ 10.1208601, 42.7486187 ] } },
{ "type": "Feature", "properties": { "name": "Mini Market - Pomonte", "description": "Snack und Getränke Stop.. <a href=\"google.com\/maps\/search\/Mini Market - Pomonte\">Google Maps Suche<\/a>" }, "geometry": { "type": "Point", "coordinates": [ 10.121819933812914, 42.748386473414676 ] } },
{ "type": "Feature", "properties": { "name": "Hotel & Bar 'Il Perseo' - Chiessi", "description": "Snack und Getränke Stop nach Semaforo - Chiessi Trail.. <a href=\"google.com\/maps\/search\/Hotel & Bar 'Il Perseo' - Chiessi\">Google Maps Suche<\/a>" }, "geometry": { "type": "Point", "coordinates": [ 10.113424194143604, 42.759005039240684 ] } },
{ "type": "Feature", "properties": { "name": "Hotel & Bar Bel Mare Patresi", "description": "Bike-Hotel, super nette Leute!! Bike Guide Matteo Anselmi.. <a href=\"google.com\/maps\/search\/Hotel & Bar Bel Mare Patresi\">Google Maps Suche<\/a>" }, "geometry": { "type": "Point", "coordinates": [ 10.117820207820397, 42.791279815618402 ] } },
{ "type": "Feature", "properties": { "name": "Osteria Del Noce - Marcianna", "description": "SUPER Essen!.. <a href=\"google.com\/maps\/search\/Osteria Del Noce - Marcianna\">Google Maps Suche<\/a>" }, "geometry": { "type": "Point", "coordinates": [ 10.167205994929112, 42.790316468951815 ] } },
{ "type": "Feature", "properties": { "name": "Pizzeria & Bar 'Bagni Paola' - Procchio", "description": "Total nette Einkehrmöglichkeit in Procchio nach Gardiola Trail!.. <a href=\"google.com\/maps\/search\/Pizzeria & Bar 'Bagni Paola' - Procchio\">Google Maps Suche<\/a>" }, "geometry": { "type": "Point", "coordinates": [ 10.247504370542897, 42.789433590132184 ] } },
{ "type": "Feature", "properties": { "name": "Osteria Locanda Cecconi - Porto Azzurro", "description": "Gutes Restaurant in Porto Azzurro - ganzjährig offen!.. <a href=\"google.com\/maps\/search\/Osteria Locanda Cecconi - Porto Azzurro\">Google Maps Suche<\/a>" }, "geometry": { "type": "Point", "coordinates": [ 10.398243648910684, 42.765950601670468 ] } },
{ "type": "Feature", "properties": { "name": "Pizzeria Da Giuseppe - Porto Azzurro", "description": "Gutes, einfaches Restaurant in Porto Azzurro - ganzjährig offen!.. <a href=\"google.com\/maps\/search\/Pizzeria Da Giuseppe - Porto Azzurro\">Google Maps Suche<\/a>" }, "geometry": { "type": "Point", "coordinates": [ 10.395422349335403, 42.765225325040845 ] } },
{ "type": "Feature", "properties": { "name": "Bar Alta Luna - Porto Azzurro", "description": "Sehr coole Bar in Porto Azzurro.. Ganzjährig offen!.. <a href=\"google.com\/maps\/search\/Bar Alta Luna - Porto Azzurro\">Google Maps Suche<\/a>" }, "geometry": { "type": "Point", "coordinates": [ 10.398409293393327, 42.765735721919597 ] } },
{ "type": "Feature", "properties": { "name": "Il Veliero Bar - Marina di Campo", "description": "Feine Bar im Hafen von Marina di Campo.. <a href=\"google.com\/maps\/search\/Il Veliero Bar - Marina di Campo\">Google Maps Suche<\/a>" }, "geometry": { "type": "Point", "coordinates": [ 10.236144660833816, 42.742844995518332 ] } },
{ "type": "Feature", "properties": { "name": "Padulella Beach - Portoferraio", "description": "Mega Strand!! Im Herbst nur früh am vormittag mit Sonne.. '<a href=\"google.com\/maps\/search\/padulella'\">' ||  'Google Maps Search' ||'<\/a>'" }, "geometry": { "type": "Point", "coordinates": [ 10.316145899983903, 42.819899612773597 ] } },
{ "type": "Feature", "properties": { "name": "Finca Terra e Cuore", "description": "Nette Einkehr, Finca mit sehr einfachem Essen und Trinken, aber super netter Platz.." }, "geometry": { "type": "Point", "coordinates": [ 10.376890230902958, 42.779867267697703 ] } }
]
}
